{
"type": "FeatureCollection",
"crs": { "type": "name", "properties": { "name": "urn:ogc:def:crs:OGC:1.3:CRS84" } },
"features": [
{ "type": "Feature", "properties": { "# Columns: Geocoded box": "UTM:(17S 047 376 10000)", "CDI": "2.0", "No. of responses": "1", "Hypocentral distance": "45", "Latitude": "34.0254", "Longitude": "-81.2708", "Suspect?": "0", "Standard deviation": "0.330", "City": "Lexington", "State": "" }, "geometry": { "type": "Point", "coordinates": [ -81.2708, 34.0254 ] } },
{ "type": "Feature", "properties": { "# Columns: Geocoded box": "UTM:(17S 049 375 10000)", "CDI": "2.7", "No. of responses": "1", "Hypocentral distance": "25", "Latitude": "33.9355", "Longitude": "-81.0540", "Suspect?": "0", "Standard deviation": "0.330", "City": "West Columbia", "State": "" }, "geometry": { "type": "Point", "coordinates": [ -81.054, 33.9355 ] } },
{ "type": "Feature", "properties": { "# Columns: Geocoded box": "UTM:(17S 050 375 10000)", "CDI": "2.5", "No. of responses": "2", "Hypocentral distance": "15", "Latitude": "33.9355", "Longitude": "-80.9459", "Suspect?": "0", "Standard deviation": "0.320", "City": "Columbia", "State": "" }, "geometry": { "type": "Point", "coordinates": [ -80.9459, 33.9355 ] } },
{ "type": "Feature", "properties": { "# Columns: Geocoded box": "UTM:(17S 051 375 10000)", "CDI": "2.0", "No. of responses": "3", "Hypocentral distance": "7", "Latitude": "33.9353", "Longitude": "-80.8377", "Suspect?": "0", "Standard deviation": "0.311", "City": "Hopkins", "State": "" }, "geometry": { "type": "Point", "coordinates": [ -80.8377, 33.9353 ] } },
{ "type": "Feature", "properties": { "# Columns: Geocoded box": "UTM:(17S 051 378 10000)", "CDI": "4.3", "No. of responses": "1", "Hypocentral distance": "30", "Latitude": "34.2059", "Longitude": "-80.8371", "Suspect?": "0", "Standard deviation": "0.330", "City": "Elgin", "State": "" }, "geometry": { "type": "Point", "coordinates": [ -80.8371, 34.2059 ] } },
{ "type": "Feature", "properties": { "# Columns: Geocoded box": "UTM:(17S 052 375 10000)", "CDI": "2.5", "No. of responses": "1", "Hypocentral distance": "8", "Latitude": "33.9352", "Longitude": "-80.7294", "Suspect?": "0", "Standard deviation": "0.330", "City": "Eastover", "State": "" }, "geometry": { "type": "Point", "coordinates": [ -80.7294, 33.9352 ] } },
{ "type": "Feature", "properties": { "# Columns: Geocoded box": "UTM:(17S 068 372 10000)", "CDI": "2.2", "No. of responses": "1", "Hypocentral distance": "168", "Latitude": "33.6488", "Longitude": "-79.0050", "Suspect?": "0", "Standard deviation": "0.330", "City": "Myrtle Beach", "State": "" }, "geometry": { "type": "Point", "coordinates": [ -79.005, 33.6488 ] } }
]
}
